[
 {
   "Region": "Caucasia",
   "Countries": "Azerbaijan",
   "Capital_city": "Baku",
   "Latitude": 40.4093,
   "Longitude": 49.8671,
   "Diversity": "Low",
   "Safety": 3,
   "Hospitality": 2,
   "History": 2,
   "Nature": 4,
   "Return": "Yes"
 },
 {
   "Region": "Central Europe",
   "Countries": "Hungary",
   "Capital_city": "Budapest",
   "Latitude": 47.4979,
   "Longitude": 19.0402,
   "Diversity": "Low",
   "Safety": 4,
   "Hospitality": 2,
   "History": 3,
   "Nature": 4,
   "Return": "Yes"
 },
 {
   "Region": "Central Europe",
   "Countries": "Czech Republic",
   "Capital_city": "Prague",
   "Latitude": 50.0755,
   "Longitude": 14.4378,
   "Diversity": "Low",
   "Safety": 3,
   "Hospitality": 1,
   "History": 3,
   "Nature": 3,
   "Return": "No"
 },
 {
   "Region": "Central Europe",
   "Countries": "Switzerland",
   "Capital_city": "Bern",
   "Latitude": 46.9479,
   "Longitude": 7.4474,
   "Diversity": "Low",
   "Safety": 4,
   "Hospitality": 3,
   "History": 2,
   "Nature": 5,
   "Return": "Yes"
 },
 {
   "Region": "Middle East",
   "Countries": "Iran",
   "Capital_city": "Tehran",
   "Latitude": 35.6892,
   "Longitude": 51.389,
   "Diversity": "Low",
   "Safety": 4,
   "Hospitality": 5,
   "History": 3,
   "Nature": 5,
   "Return": "Yes"
 },
 {
   "Region": "Middle East",
   "Countries": "United Arab Emirates",
   "Capital_city": "Dubai",
   "Latitude": 24.4539,
   "Longitude": 54.3773,
   "Diversity": "Medium",
   "Safety": 4,
   "Hospitality": 2,
   "History": 1,
   "Nature": 1,
   "Return": "No"
 },
 {
   "Region": "Middle East",
   "Countries": "Turkey",
   "Capital_city": "Istabul",
   "Latitude": 41.0082,
   "Longitude": 28.9784,
   "Diversity": "Low",
   "Safety": 4,
   "Hospitality": 5,
   "History": 3,
   "Nature": 3,
   "Return": "Yes"
 },
 {
   "Region": "Oceania",
   "Countries": "Australia",
   "Capital_city": "Melbourne",
   "Latitude": -37.8136,
   "Longitude": 144.9631,
   "Diversity": "High",
   "Safety": 4,
   "Hospitality": 3,
   "History": 2,
   "Nature": 5,
   "Return": "Yes"
 },
 {
   "Region": "South Asia",
   "Countries": "India",
   "Capital_city": "Kerala",
   "Latitude": 8.5241,
   "Longitude": 76.9366,
   "Diversity": "Low",
   "Safety": 2,
   "Hospitality": 5,
   "History": 2,
   "Nature": 3,
   "Return": "Undecided"
 },
 {
   "Region": "Southeast Asia",
   "Countries": "Singapore",
   "Capital_city": "Singapore",
   "Latitude": 1.3521,
   "Longitude": 103.8198,
   "Diversity": "Medium",
   "Safety": 5,
   "Hospitality": 2,
   "History": 1,
   "Nature": 3,
   "Return": "Undecided"
 },
 {
   "Region": "Southeast Asia",
   "Countries": "Indonesia",
   "Capital_city": "Denpasar",
   "Latitude": -8.3405,
   "Longitude": 115.092,
   "Diversity": "Low",
   "Safety": 4,
   "Hospitality": 5,
   "History": 1,
   "Nature": 4,
   "Return": "Yes"
 },
 {
   "Region": "Southeast Asia",
   "Countries": "Thailand",
   "Capital_city": "Bangkok",
   "Latitude": 13.7563,
   "Longitude": 100.5018,
   "Diversity": "Low",
   "Safety": 4,
   "Hospitality": 3,
   "History": 1,
   "Nature": 5,
   "Return": "Yes"
 },
 {
   "Region": "Southeast Europe",
   "Countries": "Bulgaria",
   "Capital_city": "Sofia",
   "Latitude": 42.6977,
   "Longitude": 23.3219,
   "Diversity": "Low",
   "Safety": 4,
   "Hospitality": 4,
   "History": 2,
   "Nature": 4,
   "Return": "No"
 },
 {
   "Region": "Southeast Europe",
   "Countries": "Romania",
   "Capital_city": "Bucharest",
   "Latitude": 44.4268,
   "Longitude": 26.1025,
   "Diversity": "Low",
   "Safety": 2,
   "Hospitality": 2,
   "History": 2,
   "Nature": 3,
   "Return": "No"
 },
 {
   "Region": "Western Europe",
   "Countries": "Germany",
   "Capital_city": "Berlin",
   "Latitude": 52.52,
   "Longitude": 13.405,
   "Diversity": "Low",
   "Safety": 3,
   "Hospitality": 1,
   "History": 5,
   "Nature": 3,
   "Return": "No"
 },
 {
   "Region": "Western Europe",
   "Countries": "France",
   "Capital_city": "Paris",
   "Latitude": 48.8566,
   "Longitude": 2.3522,
   "Diversity": "High",
   "Safety": 4,
   "Hospitality": 2,
   "History": 5,
   "Nature": 4,
   "Return": "Yes"
 }
]